[
  {"id":"tehri","name":"Tehri Dam","state":"Uttarakhand","river":"Bhagirathi","lat":30.38,"lon":78.48,"type":"reservoir"},
  {"id":"bhakra","name":"Bhakra Nangal Dam","state":"Himachal Pradesh","river":"Sutlej","lat":31.41,"lon":76.44,"type":"reservoir"},
  {"id":"hirakud","name":"Hirakud Dam","state":"Odisha","river":"Mahanadi","lat":21.53,"lon":83.87,"type":"reservoir"},
  {"id":"sardar","name":"Sardar Sarovar Dam","state":"Gujarat","river":"Narmada","lat":21.83,"lon":73.75,"type":"reservoir"},
  {"id":"nagarjuna","name":"Nagarjuna Sagar Dam","state":"Telangana","river":"Krishna","lat":16.57,"lon":79.32,"type":"reservoir"},
  {"id":"srisailam","name":"Srisailam Dam","state":"Andhra Pradesh","river":"Krishna","lat":16.09,"lon":78.89,"type":"reservoir"},
  {"id":"idukki","name":"Idukki Dam","state":"Kerala","river":"Periyar","lat":9.85,"lon":77.10,"type":"reservoir"},
  {"id":"mullaperiyar","name":"Mullaperiyar Dam","state":"Kerala","river":"Periyar","lat":9.55,"lon":77.15,"type":"reservoir"},
  {"id":"koyna","name":"Koyna Dam","state":"Maharashtra","river":"Koyna","lat":17.40,"lon":73.75,"type":"reservoir"},
  {"id":"indirasagar","name":"Indira Sagar Dam","state":"Madhya Pradesh","river":"Narmada","lat":22.26,"lon":76.45,"type":"reservoir"},
  {"id":"krishnarajasagara","name":"Krishna Raja Sagara","state":"Karnataka","river":"Kaveri","lat":12.42,"lon":76.57,"type":"reservoir"},
  {"id":"jayakwadi","name":"Jayakwadi Dam","state":"Maharashtra","river":"Godavari","lat":19.49,"lon":75.22,"type":"reservoir"},
  {"id":"mettur","name":"Mettur Dam","state":"Tamil Nadu","river":"Kaveri","lat":11.80,"lon":77.80,"type":"reservoir"},
  {"id":"bhavanisagar","name":"Bhavanisagar Dam","state":"Tamil Nadu","river":"Bhavani","lat":11.47,"lon":77.08,"type":"reservoir"},
  {"id":"vaigai","name":"Vaigai Dam","state":"Tamil Nadu","river":"Vaigai","lat":10.08,"lon":77.56,"type":"reservoir"},
  {"id":"srisailam_tg","name":"Srisailam (TG)","state":"Telangana","river":"Krishna","lat":16.09,"lon":78.89,"type":"reservoir"},
  {"id":"almatti","name":"Almatti Dam","state":"Karnataka","river":"Krishna","lat":16.33,"lon":75.89,"type":"reservoir"},
  {"id":"tungabhadra","name":"Tungabhadra Dam","state":"Karnataka","river":"Tungabhadra","lat":15.13,"lon":76.45,"type":"reservoir"},
  {"id":"somasila","name":"Somasila Dam","state":"Andhra Pradesh","river":"Penna","lat":14.60,"lon":79.32,"type":"reservoir"},
  {"id":"sardar_sarovar","name":"Sardar Sarovar (MP)","state":"Madhya Pradesh","river":"Narmada","lat":21.83,"lon":73.75,"type":"reservoir"},
  {"id":"maithon","name":"Maithon Dam","state":"Jharkhand","river":"Barakar","lat":23.78,"lon":86.82,"type":"reservoir"},
  {"id":"panchet","name":"Panchet Dam","state":"Jharkhand","river":"Damodar","lat":23.70,"lon":86.72,"type":"reservoir"},
  {"id":"rukni","name":"Rukni / Rengali","state":"Odisha","river":"Brahmani","lat":21.65,"lon":84.05,"type":"reservoir"},
  {"id":"dharoi","name":"Dharoi Dam","state":"Gujarat","river":"Sabarmati","lat":23.90,"lon":73.10,"type":"reservoir"},
  {"id":"ukai","name":"Ukai Dam","state":"Gujarat","river":"Tapi","lat":21.23,"lon":73.55,"type":"reservoir"},
  {"id":"pong","name":"Pong Dam","state":"Himachal Pradesh","river":"Beas","lat":32.02,"lon":76.08,"type":"reservoir"},
  {"id":"pandoh","name":"Pandoh Dam","state":"Himachal Pradesh","river":"Beas","lat":31.67,"lon":77.05,"type":"reservoir"},
  {"id":"nathpa","name":"Nathpa Jhakri","state":"Himachal Pradesh","river":"Sutlej","lat":31.55,"lon":77.98,"type":"reservoir"},
  {"id":"chamera","name":"Chamera Dam","state":"Himachal Pradesh","river":"Ravi","lat":32.55,"lon":76.00,"type":"reservoir"},
  {"id":"bhavani_tn","name":"Bhavani (Lower)","state":"Tamil Nadu","river":"Bhavani","lat":11.47,"lon":77.08,"type":"reservoir"},
  {"id":"parambikulam","name":"Parambikulam","state":"Kerala","river":"Parambikulam","lat":10.38,"lon":76.75,"type":"reservoir"},
  {"id":"idamalayar","name":"Idamalayar Dam","state":"Kerala","river":"Periyar","lat":10.20,"lon":76.85,"type":"reservoir"},
  {"id":"sabarigiri","name":"Sabarigiri","state":"Kerala","river":"Pamba","lat":9.28,"lon":77.08,"type":"reservoir"},
  {"id":"kadampari","name":"Kadampari Dam","state":"Kerala","river":"Kallada","lat":9.05,"lon":76.78,"type":"reservoir"},
  {"id":"srisailam_ap","name":"Srisailam (AP)","state":"Andhra Pradesh","river":"Krishna","lat":16.09,"lon":78.89,"type":"reservoir"},
  {"id":"nagarjunasagar","name":"Nagarjuna Sagar (AP)","state":"Andhra Pradesh","river":"Krishna","lat":16.57,"lon":79.32,"type":"reservoir"},
  {"id":"srisailam_telangana","name":"Srisailam","state":"Telangana","river":"Krishna","lat":16.09,"lon":78.89,"type":"reservoir"},
  {"id":"nizamsagar","name":"Nizam Sagar","state":"Telangana","river":"Manjira","lat":18.20,"lon":77.95,"type":"reservoir"},
  {"id":"singur","name":"Singur Dam","state":"Telangana","river":"Manjira","lat":17.98,"lon":77.88,"type":"reservoir"},
  {"id":"rajolibanda","name":"Rajolibanda","state":"Telangana","river":"Tungabhadra","lat":15.85,"lon":76.25,"type":"reservoir"},
  {"id":"dharoi_guj","name":"Dharoi","state":"Gujarat","river":"Sabarmati","lat":23.90,"lon":73.10,"type":"reservoir"},
  {"id":"kadana","name":"Kadana Dam","state":"Gujarat","river":"Mahi","lat":23.30,"lon":73.75,"type":"reservoir"},
  {"id":"dantiwada","name":"Dantiwada Dam","state":"Gujarat","river":"Banas","lat":24.20,"lon":72.45,"type":"reservoir"},
  {"id":"ranganadi","name":"Ranganadi Dam","state":"Arunachal Pradesh","river":"Ranganadi","lat":27.15,"lon":93.65,"type":"reservoir"},
  {"id":"kopili","name":"Kopili Hydel","state":"Assam","river":"Kopili","lat":25.95,"lon":92.78,"type":"reservoir"},
  {"id":"umiam","name":"Umiam Lake (Dam)","state":"Meghalaya","river":"Umiam","lat":25.65,"lon":91.88,"type":"reservoir"},
  {"id":"gumti","name":"Gumti Dam","state":"Tripura","river":"Gumti","lat":23.52,"lon":91.68,"type":"reservoir"},
  {"id":"lakhwar","name":"Lakhwar Dam","state":"Uttarakhand","river":"Yamuna","lat":30.52,"lon":77.88,"type":"reservoir"},
  {"id":"ramganga","name":"Ramganga Dam","state":"Uttarakhand","river":"Ramganga","lat":29.45,"lon":79.08,"type":"reservoir"},
  {"id":"tehri_uk","name":"Tehri","state":"Uttarakhand","river":"Bhagirathi","lat":30.38,"lon":78.48,"type":"reservoir"}
]
